[
  {
    "id": "66c96eca-e0c3-4c04-a988-9f5b452d5c4f",
    "name": "五大堂",
    "english_name": "Godaido",
    "city_id": "sendai",
    "region_id": null,
    "country_id": "japan",
    "latitude": null,
    "longitude": null,
    "osm": {
      "lat": 38.3697244,
      "lon": 141.0642082,
      "display_name": "五大堂, Sukashi-bashi, 松島, 松島町, 宮城郡, 宮城県, 981-0213, 日本",
      "type": "place_of_worship"
    }
  },
  {
    "id": "609e5aae-f056-4d62-a017-f5e835369601",
    "name": "瑞巖寺",
    "english_name": "Zuiganji Temple",
    "city_id": "sendai",
    "region_id": null,
    "country_id": "japan",
    "latitude": null,
    "longitude": null,
    "osm": {
      "lat": 38.3721758,
      "lon": 141.0595579,
      "display_name": "瑞巌寺, 国道45号, 松島, 松島町, 宮城郡, 宮城県, 981-0213, 日本",
      "type": "place_of_worship"
    }
  },
  {
    "id": "d83dbfa1-0d4c-4c58-b42b-49d8cdf8e97c",
    "name": "藏王狐狸村",
    "english_name": "Zao Fox Village",
    "city_id": "sendai",
    "region_id": null,
    "country_id": "japan",
    "latitude": null,
    "longitude": null,
    "osm": {
      "lat": 38.682916,
      "lon": 141.1823649,
      "display_name": "ゆうちょ銀行, 古川佐沼線, 南方町松島屋敷, 登米市, 宮城県, 987-0412, 日本",
      "type": "atm"
    }
  },
  {
    "id": "6adda077-0c61-4b62-96e4-c44bcdeeb921",
    "name": "松島海岸",
    "english_name": "Matsushima Kaigan",
    "city_id": "sendai",
    "region_id": null,
    "country_id": "japan",
    "latitude": null,
    "longitude": null,
    "osm": {
      "lat": 38.3678491,
      "lon": 141.0589956,
      "display_name": "松島海岸, 赤沼松島線, 松島, 松島町, 宮城郡, 宮城県, 981-0213, 日本",
      "type": "station"
    }
  },
  {
    "id": "a8dff2a8-24a2-4532-a290-676bbb2508af",
    "name": "藏王纜車",
    "english_name": "Zao Ropeway",
    "city_id": "yamagata",
    "region_id": null,
    "country_id": "japan",
    "latitude": null,
    "longitude": null,
    "osm": {
      "lat": 38.1533452,
      "lon": 140.4219458,
      "display_name": "2 蔵王ロープウェイ山頂線, Mt. Zizo, 山形市, 山形県, 999-3113, 日本",
      "type": "gondola"
    }
  },
  {
    "id": "c33ec68c-8b1c-4760-ac42-fe9ed9c14689",
    "name": "青森睡魔之家",
    "english_name": "Nebuta Museum Wa Rasse",
    "city_id": "aomori",
    "region_id": null,
    "country_id": "japan",
    "latitude": null,
    "longitude": null,
    "osm": {
      "lat": 40.8295722,
      "lon": 140.735946,
      "display_name": "ねぶたの家 ワ・ラッセ, 青森ベイブリッジ, 柳川二丁目, 青森市, 青森県, 038-0012, 日本",
      "type": "museum"
    }
  },
  {
    "id": "acc601f5-9c3e-455e-8ef6-a3947ee0f85c",
    "name": "山寺",
    "english_name": "Yamadera (Risshakuji Temple)",
    "city_id": "yamagata",
    "region_id": null,
    "country_id": "japan",
    "latitude": null,
    "longitude": null,
    "osm": {
      "lat": 38.3095946,
      "lon": 140.434729,
      "display_name": "山寺, 山形山寺線, 山寺, 山形市, 山形県, 日本",
      "type": "station"
    }
  },
  {
    "id": "6064006c-d92d-4d00-b695-0e21e26f7529",
    "name": "銀山溫泉",
    "english_name": "Ginzan Onsen",
    "city_id": "yamagata",
    "region_id": null,
    "country_id": "japan",
    "latitude": null,
    "longitude": null,
    "osm": {
      "lat": 38.5704194,
      "lon": 140.5300687,
      "display_name": "銀山温泉 案内所, 銀山温泉線, 銀山新畑, 尾花沢市, 山形県, 999-4333, 日本",
      "type": "information"
    }
  },
  {
    "id": "ed1dce1b-7cba-45bb-b887-057f0b6cd001",
    "name": "奈良大",
    "english_name": null,
    "city_id": null,
    "region_id": null,
    "country_id": "japan",
    "latitude": null,
    "longitude": null,
    "osm": {
      "lat": 34.7145928,
      "lon": 135.7827168,
      "display_name": "奈良大学, ならやま大通り, 神功三丁目, 奈良市, 奈良県, 631-0804, 日本",
      "type": "university"
    }
  },
  {
    "id": "d529f95b-db7c-47dc-857d-30aaa6b8bc4a",
    "name": "天上山纜車",
    "english_name": "Mt. Tenjo Ropeway",
    "city_id": "ebe380fc-1d8f-4555-8272-f3876f41b58b",
    "region_id": null,
    "country_id": "japan",
    "latitude": null,
    "longitude": null,
    "osm": {
      "lat": 35.50378,
      "lon": 138.7744071,
      "display_name": "〜河口湖〜 富士山パノラマロープウェイ, 御坂みち, 船津, 浅川, 富士河口湖町, 南都留郡, 山梨県, 402-0301, 日本",
      "type": "cable_car"
    }
  },
  {
    "id": "ce7071c4-0432-4335-93c0-e348d749d09f",
    "name": "河口湖音樂森林美術館",
    "english_name": "Kawaguchiko Music Forest Museum",
    "city_id": "ebe380fc-1d8f-4555-8272-f3876f41b58b",
    "region_id": null,
    "country_id": "japan",
    "latitude": null,
    "longitude": null,
    "osm": {
      "lat": 35.5219286,
      "lon": 138.769708,
      "display_name": "Kawaguchiko Music Forest (15), 河口湖上九一色線, 河口, 富士河口湖町, 南都留郡, 山梨県, 401-0303, 日本",
      "type": "bus_stop"
    }
  }
]
